City_ID,City,Country,Max Temp,Current Description,Lat,Lng,Hotel Name
2,Kuching,MY,77.0,few clouds,1.55,110.33,Hilton Kuching
9,Tiarei,PF,82.4,few clouds,-17.53,-149.33,Le Rocher de Tahiti
12,Teknaf,BD,78.55,broken clouds,20.86,92.31,Magnum Engineering & Construction
18,Avarua,CK,77.0,few clouds,-21.21,-159.78,Paradise Inn
21,Gotsu,JP,84.2,few clouds,35.0,132.22,Super Hotel Gotsu Ekimae
22,Vaini,TO,78.8,broken clouds,-21.2,-175.2,Keleti Beach Resort
24,San Patricio,MX,84.2,broken clouds,19.22,-104.7,Hotel Cabo Blanco
32,Key West,US,89.6,clear sky,24.56,-81.78,Fairfield Inn & Suites by Marriott Key West
33,Gunjur,GM,78.8,few clouds,13.2,-16.73,Kuba Lodge
36,Erie,US,71.6,overcast clouds,42.77,-78.67,Roycroft Inn
37,Bogalusa,US,80.6,clear sky,30.79,-89.85,Traveler's Rest Motel
38,Udupi,IN,75.2,mist,13.35,74.75,Hotel Sri Krishna Residency
39,Kapaa,US,84.2,clear sky,22.08,-159.32,Sheraton Kauai Resort at Coconut Beach
41,Kaseda,JP,84.0,few clouds,31.42,130.32,Sun Stay Kaseda
42,Acapulco,MX,84.2,broken clouds,16.86,-99.89,HS Hotsson Smart Acapulco
44,Maymyo,MM,82.4,light rain,22.03,96.47,Tiger Hotel
45,San Cristobal,VE,82.4,scattered clouds,7.77,-72.22,Pirineos
46,Segamat,MY,77.0,few clouds,2.51,102.82,VIP HOTEL
48,Amberley,US,79.0,clear sky,39.2,-84.43,"Motel 6 Cincinnati, OH - Central - Norwood"
52,Hilo,US,84.2,broken clouds,19.73,-155.09,Hilo Hawaiian Hotel
56,Cockburn Town,TC,82.96,clear sky,21.46,-71.14,Osprey Beach Hotel
59,Belmonte,BR,73.4,broken clouds,-15.86,-38.88,Pousada Monte Carmelo O Pão
60,Yendi,GH,72.9,broken clouds,9.44,-0.01,Eyarro Lodge
62,Dingle,PH,81.1,overcast clouds,11.0,122.67,Camp Pasica
66,Buchanan,LR,76.33,overcast clouds,5.88,-10.05,Kamaneahn Hotel Inc
67,Ponta Do Sol,PT,75.2,few clouds,32.67,-17.1,Hotel do Campo
69,Urucui,BR,79.12,scattered clouds,-7.23,-44.56,Formula Flat Uruçui
70,Atuona,PF,78.06,light rain,-9.8,-139.03,Villa Enata
72,Georgetown,MY,78.8,few clouds,5.41,100.34,Cititel Penang
74,Lucea,JM,86.0,scattered clouds,18.45,-78.17,Grand Palladium Jamaica Resort & Spa
75,Jalu,LY,78.17,clear sky,29.03,21.55,Jalu Hotel
76,Lexington,US,75.2,mist,37.99,-84.48,DoubleTree Suites by Hilton Hotel Lexington
78,Luganville,VU,76.06,heavy intensity rain,-15.53,167.17,The Espiritu Hotel
81,Arraial Do Cabo,BR,71.6,clear sky,-22.97,-42.03,Pousada Porto Praia
86,Ribeira Grande,PT,74.46,few clouds,38.52,-28.7,Quinta da Meia Eira
91,Nola,IT,75.99,clear sky,40.92,14.53,Pamaran Hotel
92,Pauini,BR,83.7,broken clouds,-7.71,-66.98,Casa do Kiwliks
94,Riyadh,SA,84.2,overcast clouds,24.69,46.72,InterContinental Riyadh
95,Safaga,EG,86.0,clear sky,26.73,33.94,Lamar Resort Abu Soma
99,Inhambane,MZ,71.01,clear sky,-23.86,35.38,Oceano
100,Labuhan,ID,78.1,clear sky,-6.88,112.21,bador sepret
104,Bambous Virieux,MU,71.6,scattered clouds,-20.34,57.76,Casa Tia Villa
109,Hobyo,SO,76.46,overcast clouds,5.35,48.53,Osmani Hotel
110,Kavaratti,IN,81.7,overcast clouds,10.57,72.64,Bismillah Hotel And Lodging
112,Katsuura,JP,89.6,few clouds,35.13,140.3,Katsuura Hotel Mikazuki
114,Camacha,PT,73.4,scattered clouds,33.08,-16.33,Hotel Porto Santo & Spa
116,Ixtapa,MX,84.2,broken clouds,20.7,-105.2,Container Inn Puerto Vallarta
117,Bethel,US,75.0,scattered clouds,41.37,-73.41,Courtyard by Marriott Danbury
118,Jeremie,HT,82.83,few clouds,18.65,-74.12,Auberge Inn
120,Baker City,US,82.4,haze,44.77,-117.83,Bridge Street Inn
123,Wilmington,US,84.0,overcast clouds,34.23,-77.94,"Hotel Ballast Wilmington, Tapestry Collection by Hilton"
125,Yueyang,CN,79.38,clear sky,29.33,113.09,Delong Fortune Hotel
126,Morant Bay,JM,86.0,few clouds,17.88,-76.41,Whispering Bamboo Cove Resort
132,Xai-Xai,MZ,72.93,few clouds,-25.05,33.64,Platinum Hotel
134,Basco,PH,84.07,moderate rain,20.45,121.97,Nathaniel's Lodge
136,Palghar,IN,78.8,moderate rain,19.68,72.75,"Samarth Krupa Farm, Palghar"
137,Cabo San Lucas,MX,79.0,overcast clouds,22.89,-109.91,Hotel Tesoro Los Cabos
140,Dong Hoi,VN,81.59,overcast clouds,17.48,106.6,Nam Long Hotel
142,Butaritari,KI,82.27,overcast clouds,3.07,172.79,Isles Sunset Lodge
143,Jamestown,US,72.0,broken clouds,42.1,-79.24,Hampton Inn & Suites Jamestown
147,Lorengau,PG,84.45,light rain,-2.02,147.27,Lorengau Harbourside Hotel
148,Miri,MY,75.2,scattered clouds,4.41,114.01,"Mega Hotel, Miri"
151,Soe,ID,72.81,few clouds,-9.86,124.28,Dena Hotel
152,Sakakah,SA,86.0,clear sky,29.97,40.21,Fakhamat Al Orjoana Apartment
154,Decatur,US,87.8,clear sky,39.84,-88.95,Haworth Cottage
156,Vieux-Habitants,GP,82.4,broken clouds,16.06,-61.77,Gîtes Dardanelle
159,Portland,US,84.99,clear sky,45.52,-122.68,Portland Marriott City Center
161,Bandar-E Lengeh,IR,88.9,broken clouds,26.56,54.88,کافی نت پارس
162,Chhindwara,IN,70.86,heavy intensity rain,22.07,78.93,STARiHOTELS Chhindwara
166,Cabedelo,BR,75.2,broken clouds,-6.98,-34.83,Lua Mansa Pousada
167,Tuy Hoa,VN,81.43,broken clouds,13.08,109.3,CenDeluxe Hotel Tuy Hoa
173,Kilindoni,TZ,76.21,broken clouds,-7.91,39.67,Bustani B&B
174,Mount Isa,AU,75.2,clear sky,-20.73,139.5,ibis Styles Mt Isa Verona
175,Ron Phibun,TH,78.8,few clouds,8.18,99.85,โรงเรียน ชุมชนวัดสุวรรณรังษี
176,Kapit,MY,77.31,overcast clouds,2.02,112.93,Hotel Meligai Kapit
177,Naze,JP,86.0,few clouds,28.37,129.48,奄美ポートタワーホテル
178,Pimenta Bueno,BR,89.06,overcast clouds,-11.67,-61.19,Cristalina Palace Hotel
179,Algiers,DZ,73.4,clear sky,36.75,3.04,Sofitel Algiers Hamma Garden
181,Isla Mujeres,MX,87.8,scattered clouds,21.23,-86.73,Hotel La Joya Isla Mujeres
182,Pacific Grove,US,70.0,clear sky,36.62,-121.92,Lovers Point Inn
184,Porto Novo,BJ,77.0,broken clouds,6.5,2.6,Tour Eiffel Hotel Benin
185,Port Hedland,AU,71.6,few clouds,-20.32,118.57,The Esplanade Hotel
186,Riohacha,CO,84.51,clear sky,11.54,-72.91,Hotel Taroa
189,Ugoofaaru,MV,83.03,broken clouds,5.67,73.0,Ungoofaaru Inn
190,Gat,IL,79.0,clear sky,31.61,34.76,רגע בנחת
191,Nouadhibou,MR,77.0,broken clouds,20.93,-17.03,El Medina
192,Salar,ES,79.0,scattered clouds,37.15,-4.02,Cortijo de Tajar Hotel
193,Isangel,VU,79.5,few clouds,-19.55,169.27,Volcano Sea View Tree House
194,Escarcega,MX,80.33,overcast clouds,18.61,-90.75,Hotel Maria Isabel
195,Victoria,HK,86.0,broken clouds,22.29,114.16,Mini Hotel Central
198,Bengkulu,ID,76.39,overcast clouds,-3.8,102.27,Grage Hotel Bengkulu
201,Salalah,OM,75.2,heavy intensity drizzle,17.02,54.09,HAMDAN PLAZA HOTEL
203,Hirara,JP,84.2,broken clouds,24.8,125.28,Hotel Atoll Emerald Miyakojima
206,Mackay,AU,71.01,broken clouds,-21.15,149.2,International Lodge Motel
213,Port-Gentil,GA,77.0,overcast clouds,-0.72,8.78,Fengshui Residence
219,Pitimbu,BR,75.2,broken clouds,-7.47,-34.81,Reserva do Abiaí
220,Mamallapuram,IN,82.4,mist,12.63,80.17,Radisson Blu Resort Temple Bay Mamallapuram
221,Tagusao,PH,82.56,broken clouds,9.19,117.81,"Shaman's Breath- Beach, Bed & Breakfast"
224,Nador,MA,82.4,clear sky,35.17,-2.93,Hôtel La Giralda
225,Yarmouth,US,75.0,few clouds,41.71,-70.23,The Inn At Cape Cod
227,Darnah,LY,76.44,clear sky,32.77,22.64,زاوية الرفاعي
229,Salinopolis,BR,79.54,broken clouds,-0.61,-47.36,Hotel Salinópolis
230,Porto Nacional,BR,87.8,broken clouds,-10.71,-48.42,Vila Real Hotel
233,Wajir,KE,72.55,scattered clouds,1.75,40.06,Al- Amin lodge
236,Bathsheba,BB,82.4,few clouds,13.22,-59.52,Atlantis Hotel
239,Bandarbeyla,SO,75.9,scattered clouds,9.49,50.81,REER XOOSHLE GROUP
241,Mudanya,TR,77.0,clear sky,40.38,28.88,Doga-Lya Hotel
242,Gizo,SB,82.85,light rain,-8.1,156.84,Imagination Island
255,Tougan,BF,74.39,few clouds,13.07,-3.07,Hôtel SMAK
256,Ishinomaki,JP,86.0,few clouds,38.42,141.3,Hotel Route Inn Ishinomaki Henan Inter
257,Quatre Cocos,MU,71.6,scattered clouds,-20.21,57.76,Veranda Palmar Beach Hotel
258,Qrendi,MT,77.0,few clouds,35.83,14.46,Ta' Bertu Host Family Bed & Breakfast
264,Banda Aceh,ID,80.04,overcast clouds,5.56,95.32,OYO 884 Rumoh PMI Hotel
265,Timizart,DZ,77.4,clear sky,36.8,4.27,yefssah restaurant
266,Vrangel,RU,71.46,broken clouds,42.73,133.08,"Отель ""БАЛИ"""
268,Mayo,US,77.0,moderate rain,38.89,-76.51,Resorts Resource Group International
269,San Quintin,MX,76.73,scattered clouds,30.48,-115.95,Old Mill Hotel
270,Khorramshahr,IR,86.0,clear sky,30.44,48.17,دفتر نمایندگی شرکت بازاریابان ایرانیان زمینBIZ
271,Marsh Harbour,BS,84.72,broken clouds,26.54,-77.06,Abaco Beach Resort
277,Makakilo City,US,89.6,scattered clouds,21.35,-158.09,Marriott's Ko Olina Beach Club
278,Hithadhoo,MV,81.99,overcast clouds,-0.6,73.08,Scoop Guest House
279,Xuddur,SO,72.25,clear sky,4.12,43.89,Banjanay Hotel
284,West Bay,KY,87.8,few clouds,19.37,-81.42,Calypso Cove
287,Caramay,PH,83.08,broken clouds,10.18,119.24,Peace and Love Beach Club
288,Parkersburg,US,82.4,few clouds,39.27,-81.56,The Blennerhassett Hotel
289,La Orilla,MX,81.99,scattered clouds,17.98,-102.23,Baymont by Wyndham Lazaro Cardenas
292,Westport,US,80.6,broken clouds,41.14,-73.36,The Westport Inn
293,Padang,ID,77.74,overcast clouds,-0.95,100.35,Mercure Padang
295,Carpinteria,US,88.0,clear sky,34.4,-119.52,Holiday Inn Express & Suites Carpinteria
301,Acara,BR,74.23,broken clouds,-1.96,-48.2,Hotel e Restaurante Zé da Bebé
304,Lat Yao,TH,77.43,broken clouds,15.75,99.79,ห้างหุ้นส่วนจำกัด ลาดยาวการเกษตร
308,Caninde De Sao Francisco,BR,70.29,broken clouds,-9.66,-37.79,Inn Old Trail Chico
310,Idlib,SY,78.8,clear sky,35.93,36.63,مركز تسيل للتجميل
312,Sao Filipe,CV,80.4,moderate rain,14.9,-24.5,Tortuga B&B
316,Hasaki,JP,88.0,few clouds,35.73,140.83,Inubosaki Kanko Hotel
318,Matay,EG,76.71,clear sky,28.42,30.78,Nag Aespen
319,Ilebo,CD,73.49,scattered clouds,-4.32,20.58,Hôtel des palmes
321,Eugene,US,87.8,clear sky,44.05,-123.09,Valley River Inn
322,Grammichele,IT,75.99,clear sky,37.21,14.64,Valle Verde Di Paolo E Maria Teresa Filia Snc
324,Brainerd,US,71.6,few clouds,46.36,-94.2,Holiday Inn Express & Suites Brainerd-Baxter
325,Anori,BR,77.29,light rain,-3.77,-61.64,Novo Hotel 05 Irmaos
326,Bonthe,SL,76.32,light rain,7.53,-12.51,Bonthe Holiday Village
327,Fayaoue,NC,72.5,broken clouds,-20.65,166.53,Chez Dydyce Guesthouse
332,Guerrero Negro,MX,83.05,clear sky,27.98,-114.06,"Casa Laguna, Bed & Breakfast"
334,Tigzirt,DZ,80.76,clear sky,36.89,4.12,Appartement de la plage
335,Miranda,CO,77.0,broken clouds,3.25,-76.23,Parqueadero toño lasso
338,Eston,CA,75.2,broken clouds,51.15,-108.75,Hearthside Place B&B
339,Saint Anthony,US,79.0,few clouds,45.02,-93.22,Holiday Inn Express Roseville-St. Paul
340,Dajabon,DO,82.99,clear sky,19.55,-71.71,Hotel Brisol
341,Alofi,NU,80.6,overcast clouds,-19.06,-169.92,Taloa Heights
342,Pilar,BR,73.4,few clouds,-9.6,-35.96,Pousada e churrascaria Manguaba
345,Sibolga,ID,76.19,overcast clouds,1.74,98.78,Hotel Syariah CN Darussalam
349,Hamilton,US,79.0,clear sky,39.18,-84.53,Six Acres Bed & Breakfast
350,Dubai,AE,95.0,broken clouds,25.26,55.3,"Radisson Blu Hotel, Dubai Deira Creek"
353,Upata,VE,82.0,scattered clouds,8.01,-62.4,Posada Villa Nela
354,Miandrivazo,MG,77.61,broken clouds,-19.52,45.47,Hôtel Arc En Ciel Miandrivazo
357,Gorontalo,ID,81.81,scattered clouds,0.54,123.06,Maqna Hotel by Prasanthi
358,Dyersburg,US,78.8,broken clouds,36.03,-89.39,Hampton Inn Dyersburg
360,Elizabeth City,US,84.2,clear sky,36.29,-76.25,Hampton Inn Elizabeth City
361,Faanui,PF,76.35,few clouds,-16.48,-151.75,Bora-Bora Pearl Beach Resort & Spa
362,Mayfield Heights,US,71.6,moderate rain,41.52,-81.46,Hilton Garden Inn Cleveland East/Mayfield Village
363,Nhulunbuy,AU,80.6,broken clouds,-12.23,136.77,East Arnhem Real Estate
368,Sabang,ID,83.44,light rain,5.89,95.32,Hotel Citra
371,Springdale,US,91.4,clear sky,36.19,-94.13,Springdale Inn
372,Craig,US,84.2,clear sky,40.52,-107.55,Candlewood Suites Craig-Northwest
373,Labuan,MY,77.0,few clouds,5.28,115.24,Tiara Labuan Hotel
376,Touros,BR,75.2,clear sky,-5.2,-35.46,INN NEW HORIZON
378,Palakollu,IN,77.14,light rain,16.53,81.73,SRC Residency
379,Fomboni,KM,76.19,scattered clouds,-12.28,43.74,Auberge les abou
380,Almansa,ES,75.99,few clouds,38.87,-1.1,Hotel Blu
382,Sijunjung,ID,73.6,overcast clouds,-0.69,100.95,Hotel Bukik Gadang
385,Bassila,BJ,70.25,overcast clouds,9.01,1.67,COMPLEXE MAKOYA ET FILS
386,Tabou,CI,75.6,broken clouds,4.42,-7.35,hotêl doufoulougou
387,Axim,GH,74.21,broken clouds,4.87,-2.24,AXIM BEACH RESORT AND SPA
389,Kindu,CD,72.88,scattered clouds,-2.95,25.95,Hotel Karibu
390,Los Alamos,US,91.4,scattered clouds,35.89,-106.31,Holiday Inn Express & Suites Los Alamos Entrada Park
391,Araguacu,BR,79.77,broken clouds,-12.93,-49.83,Brunas Park Hotel
392,Kismayo,SO,77.07,scattered clouds,-0.36,42.55,Agan-Hotel
394,Cayenne,GF,78.8,scattered clouds,4.93,-52.33,Hôtel Le Dronmi
397,Bani,DO,86.0,light rain,18.28,-70.33,Hospedaje Henriquez
399,Ewa Beach,US,89.6,scattered clouds,21.32,-158.01,Hampton Inn & Suites Oahu/Kapolei
400,Barquisimeto,VE,89.6,clear sky,10.07,-69.32,POSADA PARAISO DE LARA CA
401,Tukrah,LY,75.43,clear sky,32.53,20.58,استراحة لاقروتا
402,Manaure,CO,86.49,scattered clouds,11.78,-72.44,Del mar vendra
406,Kahului,US,91.4,few clouds,20.89,-156.47,Maui Seaside Hotel
407,Alta Floresta,BR,81.84,scattered clouds,-9.88,-56.09,Floresta Amazonica Hotel
410,Concepcion Del Oro,MX,79.38,broken clouds,24.63,-101.42,HOTEL HACIENDA SAN JAVIER
411,Vanimo,PG,78.12,heavy intensity rain,-2.67,141.3,Vahmoneh Lodge Vanimo
413,Mirador,BR,78.12,few clouds,-6.37,-44.36,Pousada Casa Nova
415,Racale,IT,75.99,clear sky,39.96,18.09,Albergo Vittoria
418,Port Blair,IN,81.91,overcast clouds,11.67,92.75,Fortune Resort Bay Island
420,Puerto Escondido,MX,73.4,light rain,15.85,-97.07,Aldea del Bazar Hotel and Spa
423,Honiara,SB,86.0,broken clouds,-9.43,159.95,Heritage Park Hotel
424,Souillac,MU,71.6,scattered clouds,-20.52,57.52,Bils' Villa
429,Mocuba,MZ,71.74,clear sky,-16.84,36.99,Phama Lodge
433,Nuevitas,CU,82.4,clear sky,21.55,-77.26,Hotel Caonaba
437,Laem Sing,TH,77.0,broken clouds,12.48,102.07,Laemsing Whitehouse Resort
438,Chetumal,MX,86.0,scattered clouds,18.5,-88.3,Hotel & Suites Arges
439,Alyangula,AU,78.8,overcast clouds,-13.85,136.42,Groote Eylandt Lodge
440,Coatzintla,MX,89.6,overcast clouds,20.48,-97.45,Poza Rica Inn Hotel
442,Tianpeng,CN,79.0,broken clouds,30.99,103.94,Shuangliu Love Home Business Hotel
443,Conway,US,88.0,clear sky,35.09,-92.44,"Country Inn & Suites by Radisson, Conway, AR"
444,Arrecife,ES,73.4,scattered clouds,28.96,-13.55,Hotel Lancelot
446,Carthage,TN,86.0,clear sky,36.86,10.33,Dar Fatma
448,Galle,LK,80.58,light rain,6.04,80.22,CocoBay Unawatuna
449,Grand-Santi,GF,74.19,overcast clouds,4.25,-54.38,Hotel La Villa Couacou
452,Phalaborwa,ZA,78.8,clear sky,-23.94,31.14,Bothabelo B&B
454,Huamuxtitlan,MX,77.94,moderate rain,17.82,-98.57,Hotel Huamuxtitlan
456,Shingu,JP,84.2,few clouds,33.73,135.98,Shingu UI Hotel
460,Ipixuna,BR,77.0,scattered clouds,-1.76,-48.8,Casa da Oscarina
462,Tezu,IN,76.39,light rain,27.92,96.17,Circuit House
464,Keti Bandar,PK,82.38,overcast clouds,24.14,67.45,Haji laloo memon house
466,Alexandroupoli,GR,72.0,clear sky,40.85,25.87,Apartment Hotel Athina
472,Chabahar,IR,81.79,clear sky,25.29,60.64,هتل گدروشیا
477,Lamu,KE,75.58,few clouds,-2.27,40.9,Lamu House
478,Syracuse,IT,77.0,clear sky,37.09,15.28,Hotel Posta
481,Kalmunai,LK,78.26,broken clouds,7.42,81.82,VS Villa
482,Laurinburg,US,84.99,clear sky,34.77,-79.46,Holiday Inn Express & Suites Laurinburg
483,Sokoto,NG,75.58,overcast clouds,13.06,5.24,RG Palace
484,Pocone,BR,84.76,clear sky,-16.26,-56.62,Hotel e Churrascaria Pantaneira
486,Pathein,MM,78.66,scattered clouds,16.78,94.73,Pathein Hotel
488,Charlottesville,US,86.0,clear sky,38.03,-78.48,Holiday Inn Charlottesville-Monticello
489,Mana,GF,78.89,overcast clouds,5.66,-53.78,LE SAMANA
490,Mahebourg,MU,71.6,scattered clouds,-20.41,57.7,Le Peninsula Bay Beach Resort & Spa
491,Ahuimanu,US,87.8,broken clouds,21.44,-157.84,Paradise Bay Resort
492,Santa Marta,CO,82.0,scattered clouds,11.24,-74.2,Hotel La Ballena Azul
494,Itarema,BR,78.46,scattered clouds,-2.92,-39.92,Windvillage
495,Liku,ID,80.33,few clouds,-0.73,119.89,Agoes Liverpool
496,Road Town,VG,82.99,scattered clouds,18.42,-64.62,"ZINGARA 76ft Catamaran, full crew-all included"
500,Pangkalanbuun,ID,76.39,scattered clouds,-2.68,111.62,Grand Kecubung Hotel
505,Balabac,PH,83.28,overcast clouds,7.99,117.06,Sing and Swing Lodge
506,Japura,ID,75.34,overcast clouds,-0.32,102.35,Rumah mbah Jamah
508,Praia Da Vitoria,PT,77.0,scattered clouds,38.73,-27.07,Hotel Branco I
509,Humberto De Campos,BR,76.82,clear sky,-2.6,-43.46,Pousada do Cabeça
510,Ahtopol,BG,71.6,moderate rain,42.1,27.95,Agata Beach Hotel
511,Rabo De Peixe,PT,73.4,few clouds,37.8,-25.58,Quinta das Giestas
512,Champerico,GT,80.6,broken clouds,14.3,-91.92,"Hotel y restaurante ""El Diamante"""
515,Eyl,SO,76.62,few clouds,7.98,49.82,Amiin Hotel
517,Aborlan,PH,83.07,scattered clouds,9.44,118.55,Kevina Transient House
518,Methoni,GR,78.01,clear sky,36.82,21.7,Methoni Beach Hotel
519,Kavieng,PG,83.48,overcast clouds,-2.57,150.8,Nusa Island Retreat
521,Pokhara,NP,70.88,light rain,28.23,83.98,Hotel View Point
522,Gohad,IN,80.76,broken clouds,26.43,78.44,Shree Dauji Nasta Center
524,Tulum,MX,86.0,broken clouds,20.22,-87.47,Kin Ha
525,Port Arthur,CN,77.0,clear sky,38.8,121.27,Friendship Hotel
526,Biak,ID,78.91,few clouds,-0.91,122.88,Kost Ariz
532,Mecca,SA,87.55,clear sky,21.43,39.83,Hotel Fairmont Makkah Clock Royal Tower
533,Tutoia,BR,79.66,clear sky,-2.76,-42.27,Pousada Guará's
536,Mehriz,IR,73.4,clear sky,31.59,54.43,Mehrgard dwelling/سرای مهرگرد
539,Majholi,IN,74.19,light rain,23.5,79.92,बजरग नगर जबलपुर
540,Lagoa,PT,74.03,clear sky,39.05,-27.98,Casa Das Faias
541,Ndioum,SN,87.82,light rain,16.51,-14.65,l'hôtel samassa
544,Carauari,BR,74.57,moderate rain,-4.88,-66.9,Pousada Lobo
547,Bogale,MM,78.12,broken clouds,16.28,95.4,Aung Pin Lel Guest House
548,Kununurra,AU,80.6,clear sky,-15.77,128.73,Hotel Kununurra
549,Takoradi,GH,74.25,broken clouds,4.88,-1.76,Raybow International Hotel
550,Vila Franca Do Campo,PT,73.4,few clouds,37.72,-25.43,Pestana Bahia Praia
555,Khetri,IN,79.57,few clouds,27.98,75.8,Abhay Gad Hotel 7star
558,Pindiga,NG,71.47,overcast clouds,9.98,10.93,Accommodation Center
559,Palma,ES,78.01,few clouds,39.57,2.65,Hotel Saratoga
561,Samarai,PG,78.71,moderate rain,-10.62,150.67,Nuli Sapi
565,Kulhudhuffushi,MV,82.47,clear sky,6.62,73.07,Haajy Guest House 1
576,Port Keats,AU,80.49,clear sky,-14.25,129.55,TDC Village (Hundred Man Camp)
577,Cam Ranh,VN,84.2,overcast clouds,11.92,109.16,OYO 598 Peony Hotel
578,Marrakesh,MA,73.4,clear sky,31.63,-8.01,Les Jardins de La Koutoubia
579,Santa Cruz,BO,77.0,scattered clouds,-17.8,-63.17,Hotel Cortez
584,Mareeba,AU,73.99,few clouds,-17.0,145.43,Trinity Plains Tourist Park
585,Sucua,EC,71.6,scattered clouds,-2.47,-78.17,Hotel Barza
586,Shahpur,IN,72.81,overcast clouds,16.7,76.83,Sai Deluxe Shahapur
588,Arlit,NE,80.98,light rain,18.74,7.39,Hôtel Telwa Bungalow
591,Yenagoa,NG,73.81,light rain,4.92,6.26,Amba Hotels Limited
594,Soyo,AO,72.25,overcast clouds,-6.13,12.37,Hotel Mpampa
600,Carlisle,US,73.0,light rain,40.2,-77.19,Fairfield Inn & Suites by Marriott Carlisle
602,Narasannapeta,IN,78.12,scattered clouds,18.42,84.05,G.lingaraju home
603,Yarada,IN,80.6,mist,17.65,83.27,"D-26/2, Dolphin Hill,"
606,Rosetta,EG,78.8,clear sky,31.4,30.42,Green Valley
608,Teguise,ES,73.4,scattered clouds,29.06,-13.56,B&B La Casona de Nazaret
610,Buraydah,SA,84.2,clear sky,26.33,43.98,Mövenpick Hotel Qassim
612,Chakia,IN,80.2,light rain,26.42,85.05,Rajeev
613,Puerto Ayacucho,VE,82.4,scattered clouds,5.66,-67.62,Posada Turistica Manapiare
615,Sao Jose Da Coroa Grande,BR,74.46,overcast clouds,-8.9,-35.15,Crôa Mares Hotel
616,Laurel,US,77.0,moderate rain,39.1,-76.85,Days Inn & Suites by Wyndham Laurel Near Fort Meade
618,Madison,US,75.0,heavy intensity rain,34.73,-86.57,Embassy Suites by Hilton Huntsville Hotel & Spa
619,Kandrian,PG,83.21,overcast clouds,-6.22,149.55,Kandrian Station
622,Cancun,MX,84.2,broken clouds,21.17,-86.85,Hotel Tankah Cancun
623,Lazaro Cardenas,MX,82.27,scattered clouds,17.96,-102.2,Collection O Hotel Quinta Antigua
625,Bambanglipuro,ID,78.44,few clouds,-7.95,110.28,Puri Brata
627,Mitsamiouli,KM,75.07,few clouds,-11.38,43.28,Foyer ADM
628,Itaituba,BR,77.67,overcast clouds,-4.28,-55.98,Hotel Campos
629,Honghu,CN,77.97,clear sky,29.82,113.46,文泉花园酒店
630,Pasni,PK,81.34,scattered clouds,25.26,63.47,3G hotel pasni
632,Bubaque,GW,80.62,light rain,11.28,-15.83,Casa Dora
636,Guilin,CN,73.4,clear sky,25.28,110.29,Grand 0773 Hotel
640,Polonnaruwa,LK,77.41,broken clouds,7.93,81.0,Thisara Guest House
642,Marawi,PH,80.01,overcast clouds,8.0,124.29,Salihmaruhom
643,Santa Margherita Ligure,IT,75.99,light rain,44.33,9.21,Hotel Portofino
644,Maragogi,BR,73.87,overcast clouds,-9.01,-35.22,Salinas do Maragogi All Inclusive Resort
645,Los Llanos De Aridane,ES,77.0,clear sky,28.66,-17.92,Valle Aridane
646,Tautira,PF,84.2,few clouds,-17.73,-149.15,Pension Oaoa
647,Mount Holly,US,86.0,thunderstorm,35.3,-81.02,Holiday Inn Express & Suites Charlotte Arpt-Belmont
649,Beeville,US,95.0,clear sky,28.4,-97.75,Holiday Inn Express & Suites Beeville
650,Zhanakorgan,KZ,71.67,clear sky,43.91,67.25,"""Ақпалас"" қонақ үйі"
654,Dhone,IN,74.91,overcast clouds,15.42,77.88,Krishna Lodge Dhone
655,Morehead,US,75.2,moderate rain,37.27,-87.18,CCI Express Inn
656,Muisne,EC,78.8,broken clouds,0.6,-80.03,Quinta Samay
657,Cornelio Procopio,BR,78.8,clear sky,-23.18,-50.65,Hotel Midas Cornélio Procópio
660,Maningrida,AU,78.24,overcast clouds,-12.07,134.27,Dhukurrdji Lodge
663,Itapaci,BR,73.96,broken clouds,-14.95,-49.55,Gold Pallace Hotel
665,Damietta,EG,77.0,clear sky,31.42,31.81,العواد لتجارة الابلكاش
668,Majene,ID,80.15,clear sky,-3.54,118.97,Kost Putri RABBANI
670,El Dorado,US,84.2,clear sky,33.21,-92.67,"Country Inn & Suites by Radisson, El Dorado, AR"
671,Fiumicino,IT,80.01,clear sky,41.77,12.23,Al Porticciolo Hotel
672,Pochutla,MX,78.01,light rain,15.74,-96.47,Hotel Posada San Jose
673,Tocoa,HN,85.51,overcast clouds,15.68,-86.0,GRAN HOTEL SANABRIA
674,Mpulungu,ZM,73.78,few clouds,-8.76,31.11,Nawelah Lodge
675,Black River,JM,86.0,scattered clouds,18.03,-77.85,Idlers' Rest Beach Hotel
676,Aswan,EG,80.83,clear sky,24.09,32.91,Nuba Nile
678,Sur,OM,83.35,broken clouds,22.57,59.53,Sur Plaza Hotel
680,Mansa,IN,80.19,clear sky,29.98,75.38,STARiHOTEL Mansa
685,Belle Fourche,US,75.0,clear sky,44.67,-103.85,Kings Inn
687,Vila Velha,BR,71.6,scattered clouds,-20.33,-40.29,Hotel Vitória Palace
688,Thai Binh,VN,84.2,few clouds,20.45,106.33,Hội Liên Hiệp Phụ Nữ Tỉnh Thái Bình
691,Mutsu,JP,84.99,few clouds,41.29,141.22,Mutsu Park Hotel
692,Abonnema,NG,75.2,broken clouds,4.71,6.79,Corper's Lodge Obonoma
693,Bantva,IN,79.54,moderate rain,21.49,70.07,Jay gatrad ma
696,Khalimbekaul,RU,77.0,few clouds,42.85,47.14,Mika Tsentr
699,Enshi,CN,75.72,clear sky,30.3,109.48,Moevenpick Enshi
701,Hambantota,LK,79.72,overcast clouds,6.12,81.12,Bungalow 63
702,Chibuto,MZ,70.5,clear sky,-24.69,33.53,Hotel Mar Da Zinha
704,Coari,BR,77.16,light rain,-4.08,-63.14,HOTEL ALEX FLAT
705,Wanning,CN,81.5,broken clouds,18.8,110.4,Paradise Hotel
708,Caravelas,BR,70.52,clear sky,-17.71,-39.25,Pousada dos Navegantes
711,Islampur,IN,79.7,light rain,26.27,88.2,Subham Hotel & Lodge
713,Zhanaozen,KZ,74.25,clear sky,43.3,52.8,K.korabay 28A
715,San Blas,MX,75.2,overcast clouds,21.52,-105.27,Hotel Posada del Rey
